    <?xml version="1.0" encoding="UTF-8"?>
    <PLACES>
        <PLACE>
            <ID>1</ID>
            <NAME>Main Building.1</NAME>
            <LONGITUDE>24.828821</LONGITUDE>
            <LATITUDE>60.185601</LATITUDE>
        </PLACE>
        <PLACE>
            <ID>2</ID>
            <NAME>Main Building.2</NAME>
            <LONGITUDE>24.826988</LONGITUDE>
            <LATITUDE>60.18594</LATITUDE>
        </PLACE>
        <PLACE>
            <ID>3</ID>
            <NAME>Department of Elect. Engg.</NAME>
            <LONGITUDE>24.826567</LONGITUDE>
            <LATITUDE>60.184209</LATITUDE>
        </PLACE>
        <PLACE>
            <ID>4</ID>
            <NAME>Department of Computer Science</NAME>
            <LONGITUDE>24.826777</LONGITUDE>
            <LATITUDE>60.189457</LATITUDE>
        </PLACE>
        <PLACE>
            <ID>5</ID>
            <NAME>TUAS-Talo</NAME>
            <LONGITUDE>24.817464</LONGITUDE>
            <LATITUDE>60.187238</LATITUDE>
        </PLACE>
        <PLACE>
            <ID>6</ID>
            <NAME>Maarintalo</NAME>
            <LONGITUDE>24.828279</LONGITUDE>
            <LATITUDE>60.189564</LATITUDE>
        </PLACE>
        <PLACE>
            <ID>7</ID>
            <NAME>Dipoli</NAME>
            <LONGITUDE>24.831927</LONGITUDE>
            <LATITUDE>60.184827</LATITUDE>
        </PLACE>
        <PLACE>
            <ID>8</ID>
            <NAME>Main Library</NAME>
            <LONGITUDE>24.827145</LONGITUDE>
            <LATITUDE>60.184689</LATITUDE>
        </PLACE>
        <PLACE>
            <ID>9</ID>
            <NAME>Täffä</NAME>
            <LONGITUDE>24.83266</LONGITUDE>
            <LATITUDE>60.185905</LATITUDE>
        </PLACE>
        <PLACE>
            <ID>10</ID>
            <NAME>Gentti</NAME>
            <LONGITUDE>24.808692</LONGITUDE>
            <LATITUDE>60.188753</LATITUDE>
        </PLACE>
    </PLACES>